[
    {
        "img": "https://images.unsplash.com/photo-1568605114967-8130f3a36994?w=800&h=600&fit=crop",
        "location": "Private room Vancouver",
        "title": "Stay at this spacious Edwardian House",
        "description": "1 guest · 1 bedroom · 1 bed · 1.5 shared bthrooms · Wifi · Kitchen · Free parking · Washing Machine",
        "star": 4.73,
        "price": "$30 / night",
        "total": "$117 total",
        "long": -0.0022275,
        "lat": 51.5421655
    },
    {
        "img": "https://images.unsplash.com/photo-1502672260266-1c1ef2d93688?w=800&h=600&fit=crop",
        "location": "Large house",
        "title": "Independant luxury studio apartment",
        "description": "2 guest · 3 bedroom · 1 bed · 1.5 shared bthrooms · Wifi · Kitchen",
        "star": 4.3,
        "price": "$40 / night",
        "total": "$157 total",
        "long": -0.095091,
        "lat": 51.48695
    },
    {
        "img": "https://images.unsplash.com/photo-1522708323590-d24dbb6b0267?w=800&h=600&fit=crop",
        "location": "Studio",
        "title": "London Studio Apartments",
        "description": "4 guest · 4 bedroom · 4 bed · 2 bathrooms · Free parking · Washing Machine",
        "star": 3.8,
        "price": "$35 / night",
        "total": "$207 total",
        "long": -0.135638,
        "lat": 51.521916
    },
    {
        "img": "https://images.unsplash.com/photo-1560448204-e02f11c3d0e2?w=800&h=600&fit=crop",
        "location": "Apartment in Ottawa",
        "title": "30 mins to Parliament",
        "description": "1 guest · 1 bedroom · 1 bed · 1.5 shared bthrooms · Wifi · Kitchen · Free parking · Washing Machine",
        "star": 4.1,
        "price": "$55 / night",
        "total": "$320 total",
        "long": -0.069961,
        "lat": 51.472618
    },
    {
        "img": "https://images.unsplash.com/photo-1484154218962-a197022b5858?w=800&h=600&fit=crop",
        "location": "Small house",
        "title": "Spacious Peaceful Modern",
        "description": "3 guest · 1 bedroom · 1 bed · 1.5 shared bthrooms · Wifi · Free parking · Dry Cleaning",
        "star": 5,
        "price": "$60 / night",
        "total": "$450 total",
        "long": -0.08472,
        "lat": 51.510794
    },
    {
        "img": "https://images.unsplash.com/photo-1540518614846-7eded433c457?w=800&h=600&fit=crop",
        "location": "Bedroom",
        "title": "Spacious bedroom - Downtown",
        "description": "2 guest · 1 bedroom · 1 bed · 1.5 shared bthrooms · Wifi · Washing Machine",
        "star": 4.23,
        "price": "$65 / night",
        "total": "$480 total",
        "long": -0.094116,
        "lat": 51.51401
    },
    {
        "img": "https://images.unsplash.com/photo-1600596542815-ffad4c1539a9?w=800&h=600&fit=crop",
        "location": "Bedroom",
        "title": "In a 5 Star Luxury Apartment",
        "description": "3 guest · 1 bedroom · 1 bed · 1.5 shared bthrooms · Wifi · Kitchen · Free parking · Washing Machine",
        "star": 3.85,
        "price": "$90 / night",
        "total": "$650 total",
        "long": -0.109889,
        "lat": 51.521245
    }
]